<?xml version="1.0" encoding="UTF-8" standalone="no" ?><gpx xmlns="http://www.topografix.com/GPX/1/1" creator="TakItWithMe MyMaps Converter" version="1.1" xmlns:xsi="http://www.w3.org/2001/XMLSchema-instance" xsi:schemaLocation="http://www.topografix.com/GPX/1/1 http://www.topografix.com/GPX/1/1/gpx.xsd"><metadata><name>Aruba area 3</name><desc></desc>
    <link href="http://maps.google.com/maps/ms?ie=UTF8&amp;hl=en&amp;msa=0&amp;output=kml&amp;msid=216605411417038801904.0004da7cd8bb08fc200b0">
      <text>View Online!</text>
    </link>
  </metadata><wpt lat="12.500884" lon="-70.029099"><name>Renaissance Island</name><desc>Aruba</desc></wpt><wpt lat="12.516985" lon="-69.994484"><name>Hooiberg</name><desc>Oranjestad, Aruba</desc></wpt><wpt lat="12.530816" lon="-69.996361"><name>Casibari Rock Formations</name><desc></desc></wpt><wpt lat="12.524391" lon="-69.964500"><name>Aruban Donkey Sanctuary</name><desc></desc></wpt><wpt lat="12.541335" lon="-69.958572"><name>Natural Bridge</name><desc></desc></wpt><wpt lat="12.537669" lon="-69.955826"><name>Andicuri Beach</name><desc>Aruba</desc></wpt><wpt lat="12.472148" lon="-69.978020"><name>De Palm Island Parking Lot</name><desc></desc></wpt><wpt lat="12.463328" lon="-69.968620"><name>Mangel Halto</name><desc>Aruba</desc></wpt><wpt lat="12.491200" lon="-69.925301"><name>Arikok National Park</name><desc></desc></wpt><wpt lat="12.481772" lon="-69.898270"><name>Guadirikiri Cave</name><desc></desc></wpt><wpt lat="12.419018" lon="-69.882072"><name>Seroe Colorado</name><desc>Aruba</desc></wpt><wpt lat="12.417263" lon="-69.884171"><name>Rodger's Beach</name><desc>Rodger's BeachAruba</desc></wpt><wpt lat="12.414199" lon="-69.878693"><name>Baby Beach</name><desc>Aruba</desc></wpt></gpx>